{
  "type": "FeatureCollection",
  "features": [
    {
      "type": "Feature",
      "properties": {
        "marker-color": "#7e7e7e",
        "marker-size": "medium",
        "id": "JamaMasjid",
        "name": "Jama Masjid",
        "description": "Dummy Description",
        "img": ""
      },
      "geometry": {
        "type": "Point",
        "coordinates": [
          77.67981,
          27.5063
        ]
      }
    },
    {
      "type": "Feature",
      "properties": {
        "marker-color": "#7e7e7e",
        "marker-size": "medium",
        "id": "jGullyBrahmaKumaris",
        "name": "Jain Gully Brahma Kumaris Center",
        "description": "Dummy Description",
        "img": "",
        "marker-symbol": ""
      },
      "geometry": {
        "type": "Point",
        "coordinates": [
          77.6787793636322,
          27.505706854724263
        ]
      }
    },
    {
      "type": "Feature",
      "properties": {
        "marker-symbol": "",
        "marker-color": "#7e7e7e",
        "marker-size": "medium",
        "id": "AkhandJyotiSamsthan",
        "name": "Akhand Jyoti Samsthan",
        "description": "Dummy Description",
        "img": ""
      },
      "geometry": {
        "type": "Point",
        "coordinates": [
          77.67995953559875,
          27.504212816830467
        ]
      }
    },
    {
      "type": "Feature",
      "properties": {
        "marker-color": "#7e7e7e",
        "marker-size": "medium",
        "id": "DirghaVishnu",
        "name": "Dirgha Vishnu Mandir",
        "description": "Dummy Description",
        "img": ""
      },
      "geometry": {
        "type": "Point",
        "coordinates": [
          77.67933189868927,
          27.50290908566228
        ]
      }
    },
    {
      "type": "Feature",
      "properties": {
        "marker-color": "#7e7e7e",
        "marker-size": "medium",
        "id": "HoliGate",
        "name": "Holi Gate",
        "description": "Dummy Description",
        "img": ""
      },
      "geometry": {
        "type": "Point",
        "coordinates": [
          77.68539905548094,
          27.499230957913838
        ]
      }
    },
    {
      "type": "Feature",
      "properties": {
        "marker-color": "#7e7e7e",
        "marker-size": "medium",
        "id": "VishramGhat",
        "name": "Vishram Ghat",
        "description": "Dummy Description",
        "img": ""
      },
      "geometry": {
        "type": "Point",
        "coordinates": [
          77.68642097711563,
          27.504774272940384
        ]
      }
    },
    {
      "type": "Feature",
      "properties": {
        "marker-color": "#7e7e7e",
        "marker-size": "medium",
        "id": "GatashramVishnu",
        "name": "Gatashram Vishnu Mandir",
        "description": "Dummy Description",
        "img": ""
      },
      "geometry": {
        "type": "Point",
        "coordinates": [
          77.68547147512436,
          27.504346043963235
        ]
      }
    },
    {
      "type": "Feature",
      "properties": {
        "marker-color": "#7e7e7e",
        "marker-size": "medium",
        "id": "DwarkadishMandir",
        "name": "Dwarkadish Mandir",
        "description": "Dummy Description",
        "img": ""
      },
      "geometry": {
        "type": "Point",
        "coordinates": [
          77.68492698669434,
          27.505169193742244
        ]
      }
    },
    {
      "type": "Feature",
      "properties": {
        "marker-color": "#7e7e7e",
        "marker-size": "medium",
        "id": "ShyamVarahMandir",
        "name": "Shyam Varah Mandir",
        "description": "Dummy Description",
        "img": ""
      },
      "geometry": {
        "type": "Point",
        "coordinates": [
          77.68309,
          27.50513
        ]
      }
    },
    {
      "type": "Feature",
      "properties": {
        "marker-color": "#7e7e7e",
        "marker-size": "medium",
        "id": "ShwetaVarahMandir",
        "name": "Shweta Varah Mandir",
        "description": "Dummy Description",
        "img": ""
      },
      "geometry": {
        "type": "Point",
        "coordinates": [
          77.68326,
          27.50493
        ]
      }
    }
  ]
}
