{
  "type": "FeatureCollection",
  "features": [
    {
      "type": "Feature",
      "properties": {
        "marker-color": "#7e7e7e",
        "marker-size": "medium",
        "id": "GayatriTapobhumi",
        "name": "Gayatri Tapobhumi",
        "description": "Dummy Description",
        "img": ""
      },
      "geometry": {
        "type": "Point",
        "coordinates": [
          77.6735383272171,
          27.518776442185075
        ]
      }
    },
    {
      "type": "Feature",
      "properties": {
        "marker-color": "#7e7e7e",
        "marker-size": "medium",
        "id": "Bookstore",
        "name": "Bookstore",
        "description": "Dummy Description",
        "img": ""
      },
      "geometry": {
        "type": "Point",
        "coordinates": [
          77.67333447933196,
          27.518636096290777
        ]
      }
    },
    {
      "type": "Feature",
      "properties": {
        "marker-color": "#7e7e7e",
        "marker-size": "medium",
        "id": "Vidyalaya",
        "name": "Vidyalaya",
        "description": "Dummy Description",
        "img": ""
      },
      "geometry": {
        "type": "Point",
        "coordinates": [
          77.67358392477036,
          27.519145146647308
        ]
      }
    },
    {
      "type": "Feature",
      "properties": {
        "marker-color": "#7e7e7e",
        "marker-size": "medium",
        "id": "ShivMandir",
        "name": "Shiv Mandir",
        "description": "Dummy Description",
        "img": ""
      },
      "geometry": {
        "type": "Point",
        "coordinates": [
          77.67344176769257,
          27.518348267709936
        ]
      }
    },
    {
      "type": "Feature",
      "properties": {
        "marker-color": "#7e7e7e",
        "marker-size": "medium",
        "id": "Yagyashala",
        "name": "Yagyashala",
        "description": "Dummy Description",
        "img": ""
      },
      "geometry": {
        "type": "Point",
        "coordinates": [
          77.67343908548355,
          27.518762169729445
        ]
      }
    },
    {
      "type": "Feature",
      "properties": {
        "marker-color": "#7e7e7e",
        "marker-size": "medium",
        "id": "Bhojanalaya",
        "name": "Bhojanalaya",
        "description": "Dummy Description",
        "img": ""
      },
      "geometry": {
        "type": "Point",
        "coordinates": [
          77.67345517873763,
          27.518119907308243
        ]
      }
    },
    {
      "type": "Feature",
      "properties": {
        "marker-color": "#7e7e7e",
        "marker-size": "medium",
        "id": "Clinic",
        "name": "Clinic",
        "description": "Dummy Description",
        "img": ""
      },
      "geometry": {
        "type": "Point",
        "coordinates": [
          77.6734846830368,
          27.517741684349918
        ]
      }
    },
    {
      "type": "Feature",
      "properties": {
        "marker-color": "#7e7e7e",
        "marker-size": "medium",
        "id": "TapobhumiLodgings",
        "name": "Gayatri Tapobhumi Lodgings",
        "description": "Dummy Description",
        "img": ""
      },
      "geometry": {
        "type": "Point",
        "coordinates": [
          77.67366975545883,
          27.517996211892683
        ]
      }
    },
    {
      "type": "Feature",
      "properties": {
        "marker-color": "#7e7e7e",
        "marker-size": "medium",
        "id": "AdminOffices",
        "name": "Administrative Offices",
        "description": "Dummy Description",
        "img": ""
      },
      "geometry": {
        "type": "Point",
        "coordinates": [
          77.67333447933196,
          27.51889300050354
        ]
      }
    }
  ]
}
